t_s,wall_time_s,case_name,armed,arming_state,nav_state,landed,controller_enabled,odom_age_s,rates_sp_age_s,torque_age_s,thrust_age_s,debug_age_s,joint_age_s,arm_cmd_age_s,x_m,y_m,z_ned_m,alt_m,alt_error_m,vx_mps,vy_mps,vz_mps,roll_deg,pitch_deg,yaw_deg,p_radps,q_radps,r_radps,roll_rate_sp,pitch_rate_sp,yaw_rate_sp,rates_sp_thrust_x,rates_sp_thrust_y,rates_sp_thrust_z,torque_x,torque_y,torque_z,thrust_x,thrust_y,thrust_z,dbg_omega_x,dbg_omega_y,dbg_omega_z,dbg_omega_des_x,dbg_omega_des_y,dbg_omega_des_z,dbg_e_omega_x,dbg_e_omega_y,dbg_e_omega_z,dbg_n_hat_x,dbg_n_hat_y,dbg_n_hat_z,dbg_tau_x,dbg_tau_y,dbg_tau_z,joint_pos_1,joint_pos_2,joint_pos_3,joint_pos_4,joint_pos_5,joint_pos_6,joint_vel_1,joint_vel_2,joint_vel_3,joint_vel_4,joint_vel_5,joint_vel_6,joint_cmd_1,joint_cmd_2,joint_cmd_3,joint_cmd_4,joint_cmd_5,joint_cmd_6
0.098113,1779356344.921378,manual_qgc,0,-1,-1,1,0,,,,,,0.000630,,,,,,,,,,,,,,,,,,,,,,,,,,,,,,,,,,,,,,,,,,,0.000000,0.000000,0.000000,0.000000,0.000000,0.000000,0.000000,0.000000,0.000000,0.000000,0.000000,0.000000,,,,,,
0.148522,1779356344.971787,manual_qgc,0,-1,-1,1,0,,,,,,0.017946,,,,,,,,,,,,,,,,,,,,,,,,,,,,,,,,,,,,,,,,,,,0.000000,0.000000,0.000000,0.000000,0.000000,0.000000,0.000000,0.000000,0.000000,0.000000,0.000000,0.000000,,,,,,
0.198370,1779356345.021635,manual_qgc,0,-1,-1,1,0,,,,,,0.007658,,,,,,,,,,,,,,,,,,,,,,,,,,,,,,,,,,,,,,,,,,,0.000000,0.000000,0.000000,0.000000,0.000000,0.000000,0.000000,0.000000,0.000000,0.000000,0.000000,0.000000,,,,,,
0.248644,1779356345.071910,manual_qgc,0,-1,-1,1,0,,,,,,0.018092,,,,,,,,,,,,,,,,,,,,,,,,,,,,,,,,,,,,,,,,,,,0.000000,0.000000,0.000000,0.000000,0.000000,0.000000,0.000000,0.000000,0.000000,0.000000,0.000000,0.000000,,,,,,
0.298295,1779356345.121561,manual_qgc,0,-1,-1,1,0,,,,,,0.007665,,,,,,,,,,,,,,,,,,,,,,,,,,,,,,,,,,,,,,,,,,,0.000000,0.000000,0.000000,0.000000,0.000000,0.000000,0.000000,0.000000,0.000000,0.000000,0.000000,0.000000,,,,,,
0.348375,1779356345.171640,manual_qgc,0,-1,-1,1,0,,,,,,0.018708,,,,,,,,,,,,,,,,,,,,,,,,,,,,,,,,,,,,,,,,,,,0.000000,0.000000,0.000000,0.000000,0.000000,0.000000,0.000000,0.000000,0.000000,0.000000,0.000000,0.000000,,,,,,
0.398201,1779356345.221467,manual_qgc,0,-1,-1,1,0,,,,,,0.008679,,,,,,,,,,,,,,,,,,,,,,,,,,,,,,,,,,,,,,,,,,,0.000000,0.000000,0.000000,0.000000,0.000000,0.000000,0.000000,0.000000,0.000000,0.000000,0.000000,0.000000,,,,,,
0.448369,1779356345.271635,manual_qgc,0,-1,-1,1,0,,,,,,0.018965,,,,,,,,,,,,,,,,,,,,,,,,,,,,,,,,,,,,,,,,,,,0.000000,0.000000,0.000000,0.000000,0.000000,0.000000,0.000000,0.000000,0.000000,0.000000,0.000000,0.000000,,,,,,
0.498764,1779356345.322029,manual_qgc,0,-1,-1,1,0,,,,,,0.008754,,,,,,,,,,,,,,,,,,,,,,,,,,,,,,,,,,,,,,,,,,,0.000000,0.000000,0.000000,0.000000,0.000000,0.000000,0.000000,0.000000,0.000000,0.000000,0.000000,0.000000,,,,,,
0.548235,1779356345.371501,manual_qgc,0,-1,-1,1,0,,,,,,0.017797,,,,,,,,,,,,,,,,,,,,,,,,,,,,,,,,,,,,,,,,,,,0.000000,0.000000,0.000000,0.000000,0.000000,0.000000,0.000000,0.000000,0.000000,0.000000,0.000000,0.000000,,,,,,
0.598189,1779356345.421454,manual_qgc,0,-1,-1,1,0,,,,,,0.008497,,,,,,,,,,,,,,,,,,,,,,,,,,,,,,,,,,,,,,,,,,,0.000000,0.000000,0.000000,0.000000,0.000000,0.000000,0.000000,0.000000,0.000000,0.000000,0.000000,0.000000,,,,,,
0.648186,1779356345.471452,manual_qgc,0,-1,-1,1,0,,,,,,0.018282,,,,,,,,,,,,,,,,,,,,,,,,,,,,,,,,,,,,,,,,,,,0.000000,0.000000,0.000000,0.000000,0.000000,0.000000,0.000000,0.000000,0.000000,0.000000,0.000000,0.000000,,,,,,
0.698247,1779356345.521513,manual_qgc,0,-1,-1,1,0,,,,,,0.008641,,,,,,,,,,,,,,,,,,,,,,,,,,,,,,,,,,,,,,,,,,,0.000000,0.000000,0.000000,0.000000,0.000000,0.000000,0.000000,0.000000,0.000000,0.000000,0.000000,0.000000,,,,,,
0.748515,1779356345.571780,manual_qgc,0,-1,-1,1,0,,,,,,0.018502,,,,,,,,,,,,,,,,,,,,,,,,,,,,,,,,,,,,,,,,,,,0.000000,0.000000,0.000000,0.000000,0.000000,0.000000,0.000000,0.000000,0.000000,0.000000,0.000000,0.000000,,,,,,
0.798604,1779356345.621870,manual_qgc,0,-1,-1,1,0,,,,,,0.008701,,,,,,,,,,,,,,,,,,,,,,,,,,,,,,,,,,,,,,,,,,,0.000000,0.000000,0.000000,0.000000,0.000000,0.000000,0.000000,0.000000,0.000000,0.000000,0.000000,0.000000,,,,,,
0.848369,1779356345.671634,manual_qgc,0,-1,-1,1,0,,,,,,0.017912,,,,,,,,,,,,,,,,,,,,,,,,,,,,,,,,,,,,,,,,,,,0.000000,0.000000,0.000000,0.000000,0.000000,0.000000,0.000000,0.000000,0.000000,0.000000,0.000000,0.000000,,,,,,
0.898360,1779356345.721625,manual_qgc,0,-1,-1,1,0,,,,,,0.007923,,,,,,,,,,,,,,,,,,,,,,,,,,,,,,,,,,,,,,,,,,,0.000000,0.000000,0.000000,0.000000,0.000000,0.000000,0.000000,0.000000,0.000000,0.000000,0.000000,0.000000,,,,,,
0.948181,1779356345.771446,manual_qgc,0,-1,-1,1,0,,,,,,0.018394,,,,,,,,,,,,,,,,,,,,,,,,,,,,,,,,,,,,,,,,,,,0.000000,0.000000,0.000000,0.000000,0.000000,0.000000,0.000000,0.000000,0.000000,0.000000,0.000000,0.000000,,,,,,
0.998606,1779356345.821871,manual_qgc,0,-1,-1,1,0,,,,,,0.008749,,,,,,,,,,,,,,,,,,,,,,,,,,,,,,,,,,,,,,,,,,,0.000000,0.000000,0.000000,0.000000,0.000000,0.000000,0.000000,0.000000,0.000000,0.000000,0.000000,0.000000,,,,,,
1.048133,1779356345.871398,manual_qgc,0,-1,-1,1,0,,,,,,0.018162,,,,,,,,,,,,,,,,,,,,,,,,,,,,,,,,,,,,,,,,,,,0.000000,0.000000,0.000000,0.000000,0.000000,0.000000,0.000000,0.000000,0.000000,0.000000,0.000000,0.000000,,,,,,
1.098180,1779356345.921445,manual_qgc,0,-1,-1,1,0,,,,,,0.008443,,,,,,,,,,,,,,,,,,,,,,,,,,,,,,,,,,,,,,,,,,,0.000000,0.000000,0.000000,0.000000,0.000000,0.000000,0.000000,0.000000,0.000000,0.000000,0.000000,0.000000,,,,,,
1.148189,1779356345.971455,manual_qgc,0,-1,-1,1,0,,,,,,0.018580,,,,,,,,,,,,,,,,,,,,,,,,,,,,,,,,,,,,,,,,,,,0.000000,0.000000,0.000000,0.000000,0.000000,0.000000,0.000000,0.000000,0.000000,0.000000,0.000000,0.000000,,,,,,
1.198199,1779356346.021464,manual_qgc,0,-1,-1,1,0,,,,,,0.008711,,,,,,,,,,,,,,,,,,,,,,,,,,,,,,,,,,,,,,,,,,,0.000000,0.000000,0.000000,0.000000,0.000000,0.000000,0.000000,0.000000,0.000000,0.000000,0.000000,0.000000,,,,,,
1.248694,1779356346.071959,manual_qgc,0,-1,-1,1,0,,,,,,0.018699,,,,,,,,,,,,,,,,,,,,,,,,,,,,,,,,,,,,,,,,,,,0.000000,0.000000,0.000000,0.000000,0.000000,0.000000,0.000000,0.000000,0.000000,0.000000,0.000000,0.000000,,,,,,
1.298196,1779356346.121461,manual_qgc,0,-1,-1,1,0,,,,,,0.007916,,,,,,,,,,,,,,,,,,,,,,,,,,,,,,,,,,,,,,,,,,,0.000000,0.000000,0.000000,0.000000,0.000000,0.000000,0.000000,0.000000,0.000000,0.000000,0.000000,0.000000,,,,,,
1.348224,1779356346.171490,manual_qgc,0,-1,-1,1,0,,,,,,0.018297,,,,,,,,,,,,,,,,,,,,,,,,,,,,,,,,,,,,,,,,,,,0.000000,0.000000,0.000000,0.000000,0.000000,0.000000,0.000000,0.000000,0.000000,0.000000,0.000000,0.000000,,,,,,
1.398406,1779356346.221671,manual_qgc,0,-1,-1,1,0,,,,,,0.007979,,,,,,,,,,,,,,,,,,,,,,,,,,,,,,,,,,,,,,,,,,,0.000000,0.000000,0.000000,0.000000,0.000000,0.000000,0.000000,0.000000,0.000000,0.000000,0.000000,0.000000,,,,,,
1.448174,1779356346.271440,manual_qgc,0,-1,-1,1,0,,,,,,0.018297,,,,,,,,,,,,,,,,,,,,,,,,,,,,,,,,,,,,,,,,,,,0.000000,0.000000,0.000000,0.000000,0.000000,0.000000,0.000000,0.000000,0.000000,0.000000,0.000000,0.000000,,,,,,
1.498494,1779356346.321760,manual_qgc,0,-1,-1,1,0,,,,,,0.008624,,,,,,,,,,,,,,,,,,,,,,,,,,,,,,,,,,,,,,,,,,,0.000000,0.000000,0.000000,0.000000,0.000000,0.000000,0.000000,0.000000,0.000000,0.000000,0.000000,0.000000,,,,,,
1.548151,1779356346.371416,manual_qgc,0,-1,-1,1,0,,,,,,0.018306,,,,,,,,,,,,,,,,,,,,,,,,,,,,,,,,,,,,,,,,,,,0.000000,0.000000,0.000000,0.000000,0.000000,0.000000,0.000000,0.000000,0.000000,0.000000,0.000000,0.000000,,,,,,
1.598162,1779356346.421428,manual_qgc,0,-1,-1,1,0,,,,,,0.008432,,,,,,,,,,,,,,,,,,,,,,,,,,,,,,,,,,,,,,,,,,,0.000000,0.000000,0.000000,0.000000,0.000000,0.000000,0.000000,0.000000,0.000000,0.000000,0.000000,0.000000,,,,,,
1.648167,1779356346.471432,manual_qgc,0,-1,-1,1,0,,,,,,0.018393,,,,,,,,,,,,,,,,,,,,,,,,,,,,,,,,,,,,,,,,,,,0.000000,0.000000,0.000000,0.000000,0.000000,0.000000,0.000000,0.000000,0.000000,0.000000,0.000000,0.000000,,,,,,
1.698258,1779356346.521523,manual_qgc,0,-1,-1,1,0,,,,,,0.008811,,,,,,,,,,,,,,,,,,,,,,,,,,,,,,,,,,,,,,,,,,,0.000000,0.000000,0.000000,0.000000,0.000000,0.000000,0.000000,0.000000,0.000000,0.000000,0.000000,0.000000,,,,,,
1.748269,1779356346.571534,manual_qgc,0,-1,-1,1,0,,,,,,0.018138,,,,,,,,,,,,,,,,,,,,,,,,,,,,,,,,,,,,,,,,,,,0.000000,0.000000,0.000000,0.000000,0.000000,0.000000,0.000000,0.000000,0.000000,0.000000,0.000000,0.000000,,,,,,
1.798194,1779356346.621459,manual_qgc,0,-1,-1,1,0,,,,,,0.008488,,,,,,,,,,,,,,,,,,,,,,,,,,,,,,,,,,,,,,,,,,,0.000000,0.000000,0.000000,0.000000,0.000000,0.000000,0.000000,0.000000,0.000000,0.000000,0.000000,0.000000,,,,,,
1.848224,1779356346.671489,manual_qgc,0,-1,-1,1,0,,,,,,0.018591,,,,,,,,,,,,,,,,,,,,,,,,,,,,,,,,,,,,,,,,,,,0.000000,0.000000,0.000000,0.000000,0.000000,0.000000,0.000000,0.000000,0.000000,0.000000,0.000000,0.000000,,,,,,
1.898319,1779356346.721585,manual_qgc,0,-1,-1,1,0,,,,,,0.008856,,,,,,,,,,,,,,,,,,,,,,,,,,,,,,,,,,,,,,,,,,,0.000000,0.000000,0.000000,0.000000,0.000000,0.000000,0.000000,0.000000,0.000000,0.000000,0.000000,0.000000,,,,,,
1.948205,1779356346.771471,manual_qgc,0,-1,-1,1,0,,,,,,0.017985,,,,,,,,,,,,,,,,,,,,,,,,,,,,,,,,,,,,,,,,,,,0.000000,0.000000,0.000000,0.000000,0.000000,0.000000,0.000000,0.000000,0.000000,0.000000,0.000000,0.000000,,,,,,
1.998202,1779356346.821467,manual_qgc,0,-1,-1,1,0,,,,,,0.008569,,,,,,,,,,,,,,,,,,,,,,,,,,,,,,,,,,,,,,,,,,,0.000000,0.000000,0.000000,0.000000,0.000000,0.000000,0.000000,0.000000,0.000000,0.000000,0.000000,0.000000,,,,,,
2.048168,1779356346.871434,manual_qgc,0,-1,-1,1,0,,,,,,0.018042,,,,,,,,,,,,,,,,,,,,,,,,,,,,,,,,,,,,,,,,,,,0.000000,0.000000,0.000000,0.000000,0.000000,0.000000,0.000000,0.000000,0.000000,0.000000,0.000000,0.000000,,,,,,
2.098190,1779356346.921456,manual_qgc,0,-1,-1,1,0,,,,,,0.008788,,,,,,,,,,,,,,,,,,,,,,,,,,,,,,,,,,,,,,,,,,,0.000000,0.000000,0.000000,0.000000,0.000000,0.000000,0.000000,0.000000,0.000000,0.000000,0.000000,0.000000,,,,,,
2.148273,1779356346.971539,manual_qgc,0,-1,-1,1,0,,,,,,0.018626,,,,,,,,,,,,,,,,,,,,,,,,,,,,,,,,,,,,,,,,,,,0.000000,0.000000,0.000000,0.000000,0.000000,0.000000,0.000000,0.000000,0.000000,0.000000,0.000000,0.000000,,,,,,
2.198127,1779356347.021392,manual_qgc,0,-1,-1,1,0,,,,,,0.008823,,,,,,,,,,,,,,,,,,,,,,,,,,,,,,,,,,,,,,,,,,,0.000000,0.000000,0.000000,0.000000,0.000000,0.000000,0.000000,0.000000,0.000000,0.000000,0.000000,0.000000,,,,,,
2.248211,1779356347.071476,manual_qgc,0,-1,-1,1,0,,,,,,0.018501,,,,,,,,,,,,,,,,,,,,,,,,,,,,,,,,,,,,,,,,,,,0.000000,0.000000,0.000000,0.000000,0.000000,0.000000,0.000000,0.000000,0.000000,0.000000,0.000000,0.000000,,,,,,
2.298208,1779356347.121473,manual_qgc,0,-1,-1,1,0,,,,,,0.008563,,,,,,,,,,,,,,,,,,,,,,,,,,,,,,,,,,,,,,,,,,,0.000000,0.000000,0.000000,0.000000,0.000000,0.000000,0.000000,0.000000,0.000000,0.000000,0.000000,0.000000,,,,,,
2.348154,1779356347.171419,manual_qgc,0,-1,-1,1,0,,,,,,0.018465,,,,,,,,,,,,,,,,,,,,,,,,,,,,,,,,,,,,,,,,,,,0.000000,0.000000,0.000000,0.000000,0.000000,0.000000,0.000000,0.000000,0.000000,0.000000,0.000000,0.000000,,,,,,
2.398151,1779356347.221416,manual_qgc,0,-1,-1,1,0,,,,,,0.008827,,,,,,,,,,,,,,,,,,,,,,,,,,,,,,,,,,,,,,,,,,,0.000000,0.000000,0.000000,0.000000,0.000000,0.000000,0.000000,0.000000,0.000000,0.000000,0.000000,0.000000,,,,,,
2.448189,1779356347.271454,manual_qgc,0,-1,-1,1,0,,,,,,0.018497,,,,,,,,,,,,,,,,,,,,,,,,,,,,,,,,,,,,,,,,,,,0.000000,0.000000,0.000000,0.000000,0.000000,0.000000,0.000000,0.000000,0.000000,0.000000,0.000000,0.000000,,,,,,
2.498174,1779356347.321440,manual_qgc,0,-1,-1,1,0,,,,,,0.008797,,,,,,,,,,,,,,,,,,,,,,,,,,,,,,,,,,,,,,,,,,,0.000000,0.000000,0.000000,0.000000,0.000000,0.000000,0.000000,0.000000,0.000000,0.000000,0.000000,0.000000,,,,,,
2.548243,1779356347.371508,manual_qgc,0,-1,-1,1,0,,,,,,0.018294,,,,,,,,,,,,,,,,,,,,,,,,,,,,,,,,,,,,,,,,,,,0.000000,0.000000,0.000000,0.000000,0.000000,0.000000,0.000000,0.000000,0.000000,0.000000,0.000000,0.000000,,,,,,
2.598386,1779356347.421651,manual_qgc,0,-1,-1,1,0,,,,,,0.008748,,,,,,,,,,,,,,,,,,,,,,,,,,,,,,,,,,,,,,,,,,,0.000000,0.000000,0.000000,0.000000,0.000000,0.000000,0.000000,0.000000,0.000000,0.000000,0.000000,0.000000,,,,,,
2.648231,1779356347.471496,manual_qgc,0,-1,-1,1,0,,,,,,0.018960,,,,,,,,,,,,,,,,,,,,,,,,,,,,,,,,,,,,,,,,,,,0.000000,0.000000,0.000000,0.000000,0.000000,0.000000,0.000000,0.000000,0.000000,0.000000,0.000000,0.000000,,,,,,
2.698243,1779356347.521509,manual_qgc,0,-1,-1,1,0,,,,,,0.008512,,,,,,,,,,,,,,,,,,,,,,,,,,,,,,,,,,,,,,,,,,,0.000000,0.000000,0.000000,0.000000,0.000000,0.000000,0.000000,0.000000,0.000000,0.000000,0.000000,0.000000,,,,,,
2.748165,1779356347.571430,manual_qgc,0,-1,-1,1,0,,,,,,0.018574,,,,,,,,,,,,,,,,,,,,,,,,,,,,,,,,,,,,,,,,,,,0.000000,0.000000,0.000000,0.000000,0.000000,0.000000,0.000000,0.000000,0.000000,0.000000,0.000000,0.000000,,,,,,
2.798209,1779356347.621474,manual_qgc,0,-1,-1,1,0,,,,,,0.008477,,,,,,,,,,,,,,,,,,,,,,,,,,,,,,,,,,,,,,,,,,,0.000000,0.000000,0.000000,0.000000,0.000000,0.000000,0.000000,0.000000,0.000000,0.000000,0.000000,0.000000,,,,,,
2.848191,1779356347.671456,manual_qgc,0,-1,-1,1,0,,,,,,0.017844,,,,,,,,,,,,,,,,,,,,,,,,,,,,,,,,,,,,,,,,,,,0.000000,0.000000,0.000000,0.000000,0.000000,0.000000,0.000000,0.000000,0.000000,0.000000,0.000000,0.000000,,,,,,
2.898254,1779356347.721519,manual_qgc,0,-1,-1,1,0,,,,,,0.008803,,,,,,,,,,,,,,,,,,,,,,,,,,,,,,,,,,,,,,,,,,,0.000000,0.000000,0.000000,0.000000,0.000000,0.000000,0.000000,0.000000,0.000000,0.000000,0.000000,0.000000,,,,,,
2.948385,1779356347.771650,manual_qgc,0,-1,-1,1,0,,,,,,0.018537,,,,,,,,,,,,,,,,,,,,,,,,,,,,,,,,,,,,,,,,,,,0.000000,0.000000,0.000000,0.000000,0.000000,0.000000,0.000000,0.000000,0.000000,0.000000,0.000000,0.000000,,,,,,
2.998444,1779356347.821709,manual_qgc,0,-1,-1,1,0,,,,,,0.007538,,,,,,,,,,,,,,,,,,,,,,,,,,,,,,,,,,,,,,,,,,,0.000000,0.000000,0.000000,0.000000,0.000000,0.000000,0.000000,0.000000,0.000000,0.000000,0.000000,0.000000,,,,,,
3.048371,1779356347.871637,manual_qgc,0,-1,-1,1,0,,,,,,0.016116,,,,,,,,,,,,,,,,,,,,,,,,,,,,,,,,,,,,,,,,,,,0.000000,0.000000,0.000000,0.000000,0.000000,0.000000,0.000000,0.000000,0.000000,0.000000,0.000000,0.000000,,,,,,
3.098399,1779356347.921664,manual_qgc,0,-1,-1,1,0,,,,,,0.008260,,,,,,,,,,,,,,,,,,,,,,,,,,,,,,,,,,,,,,,,,,,0.000000,0.000000,0.000000,0.000000,0.000000,0.000000,0.000000,0.000000,0.000000,0.000000,0.000000,0.000000,,,,,,
3.148504,1779356347.971769,manual_qgc,0,-1,-1,1,0,,,,,,0.019005,,,,,,,,,,,,,,,,,,,,,,,,,,,,,,,,,,,,,,,,,,,0.000000,0.000000,0.000000,0.000000,0.000000,0.000000,0.000000,0.000000,0.000000,0.000000,0.000000,0.000000,,,,,,
3.198269,1779356348.021535,manual_qgc,0,-1,-1,1,0,,,,,,0.008340,,,,,,,,,,,,,,,,,,,,,,,,,,,,,,,,,,,,,,,,,,,0.000000,0.000000,0.000000,0.000000,0.000000,0.000000,0.000000,0.000000,0.000000,0.000000,0.000000,0.000000,,,,,,
3.248163,1779356348.071428,manual_qgc,0,-1,-1,1,0,,,,,,0.018529,,,,,,,,,,,,,,,,,,,,,,,,,,,,,,,,,,,,,,,,,,,0.000000,0.000000,0.000000,0.000000,0.000000,0.000000,0.000000,0.000000,0.000000,0.000000,0.000000,0.000000,,,,,,
3.298262,1779356348.121527,manual_qgc,0,-1,-1,1,0,,,,,,0.008145,,,,,,,,,,,,,,,,,,,,,,,,,,,,,,,,,,,,,,,,,,,0.000000,0.000000,0.000000,0.000000,0.000000,0.000000,0.000000,0.000000,0.000000,0.000000,0.000000,0.000000,,,,,,
3.348213,1779356348.171479,manual_qgc,0,-1,-1,1,0,,,,,,0.018599,,,,,,,,,,,,,,,,,,,,,,,,,,,,,,,,,,,,,,,,,,,0.000000,0.000000,0.000000,0.000000,0.000000,0.000000,0.000000,0.000000,0.000000,0.000000,0.000000,0.000000,,,,,,
3.398289,1779356348.221555,manual_qgc,0,-1,-1,1,0,,,,,,0.008784,,,,,,,,,,,,,,,,,,,,,,,,,,,,,,,,,,,,,,,,,,,0.000000,0.000000,0.000000,0.000000,0.000000,0.000000,0.000000,0.000000,0.000000,0.000000,0.000000,0.000000,,,,,,
3.448107,1779356348.271373,manual_qgc,0,-1,-1,1,0,,,,,,0.018893,,,,,,,,,,,,,,,,,,,,,,,,,,,,,,,,,,,,,,,,,,,0.000000,0.000000,0.000000,0.000000,0.000000,0.000000,0.000000,0.000000,0.000000,0.000000,0.000000,0.000000,,,,,,
3.498216,1779356348.321482,manual_qgc,0,-1,-1,1,0,,,,,,0.008774,,,,,,,,,,,,,,,,,,,,,,,,,,,,,,,,,,,,,,,,,,,0.000000,0.000000,0.000000,0.000000,0.000000,0.000000,0.000000,0.000000,0.000000,0.000000,0.000000,0.000000,,,,,,
3.548120,1779356348.371385,manual_qgc,0,-1,-1,1,0,,,,,,0.018436,,,,,,,,,,,,,,,,,,,,,,,,,,,,,,,,,,,,,,,,,,,0.000000,0.000000,0.000000,0.000000,0.000000,0.000000,0.000000,0.000000,0.000000,0.000000,0.000000,0.000000,,,,,,
3.598276,1779356348.421542,manual_qgc,0,-1,-1,1,0,,,,,,0.008808,,,,,,,,,,,,,,,,,,,,,,,,,,,,,,,,,,,,,,,,,,,0.000000,0.000000,0.000000,0.000000,0.000000,0.000000,0.000000,0.000000,0.000000,0.000000,0.000000,0.000000,,,,,,
3.648098,1779356348.471363,manual_qgc,0,-1,-1,1,0,,,,,,0.018870,,,,,,,,,,,,,,,,,,,,,,,,,,,,,,,,,,,,,,,,,,,0.000000,0.000000,0.000000,0.000000,0.000000,0.000000,0.000000,0.000000,0.000000,0.000000,0.000000,0.000000,,,,,,
3.698126,1779356348.521391,manual_qgc,0,-1,-1,1,0,,,,,,0.008650,,,,,,,,,,,,,,,,,,,,,,,,,,,,,,,,,,,,,,,,,,,0.000000,0.000000,0.000000,0.000000,0.000000,0.000000,0.000000,0.000000,0.000000,0.000000,0.000000,0.000000,,,,,,
3.748169,1779356348.571434,manual_qgc,0,-1,-1,1,0,,,,,,0.018952,,,,,,,,,,,,,,,,,,,,,,,,,,,,,,,,,,,,,,,,,,,0.000000,0.000000,0.000000,0.000000,0.000000,0.000000,0.000000,0.000000,0.000000,0.000000,0.000000,0.000000,,,,,,
3.798192,1779356348.621458,manual_qgc,0,-1,-1,1,0,,,,,,0.008794,,,,,,,,,,,,,,,,,,,,,,,,,,,,,,,,,,,,,,,,,,,0.000000,0.000000,0.000000,0.000000,0.000000,0.000000,0.000000,0.000000,0.000000,0.000000,0.000000,0.000000,,,,,,
3.848332,1779356348.671597,manual_qgc,0,-1,-1,1,0,,,,,,0.019174,,,,,,,,,,,,,,,,,,,,,,,,,,,,,,,,,,,,,,,,,,,0.000000,0.000000,0.000000,0.000000,0.000000,0.000000,0.000000,0.000000,0.000000,0.000000,0.000000,0.000000,,,,,,
3.898230,1779356348.721495,manual_qgc,0,-1,-1,1,0,,,,,,0.008688,,,,,,,,,,,,,,,,,,,,,,,,,,,,,,,,,,,,,,,,,,,0.000000,0.000000,0.000000,0.000000,0.000000,0.000000,0.000000,0.000000,0.000000,0.000000,0.000000,0.000000,,,,,,
3.948161,1779356348.771426,manual_qgc,0,-1,-1,1,0,,,,,,0.018853,,,,,,,,,,,,,,,,,,,,,,,,,,,,,,,,,,,,,,,,,,,0.000000,0.000000,0.000000,0.000000,0.000000,0.000000,0.000000,0.000000,0.000000,0.000000,0.000000,0.000000,,,,,,
3.998220,1779356348.821485,manual_qgc,0,-1,-1,1,0,,,,,,0.008901,,,,,,,,,,,,,,,,,,,,,,,,,,,,,,,,,,,,,,,,,,,0.000000,0.000000,0.000000,0.000000,0.000000,0.000000,0.000000,0.000000,0.000000,0.000000,0.000000,0.000000,,,,,,
4.048138,1779356348.871403,manual_qgc,0,-1,-1,1,0,,,,,,0.018333,,,,,,,,,,,,,,,,,,,,,,,,,,,,,,,,,,,,,,,,,,,0.000000,0.000000,0.000000,0.000000,0.000000,0.000000,0.000000,0.000000,0.000000,0.000000,0.000000,0.000000,,,,,,
4.098169,1779356348.921434,manual_qgc,0,-1,-1,1,0,,,,,,0.008661,,,,,,,,,,,,,,,,,,,,,,,,,,,,,,,,,,,,,,,,,,,0.000000,0.000000,0.000000,0.000000,0.000000,0.000000,0.000000,0.000000,0.000000,0.000000,0.000000,0.000000,,,,,,
4.147999,1779356348.971264,manual_qgc,0,1,4,1,0,0.004251,0.004109,,,0.001441,0.018687,,0.006925,0.004186,-0.038836,0.038836,-1.961164,0.002875,0.008934,0.006454,-0.003543,-0.002077,95.967308,-0.000280,0.000474,-0.000142,0.000294,0.000160,0.000013,0.000000,0.000000,-0.001000,,,,,,,-0.000280,0.000474,-0.000142,0.000294,0.000160,0.000013,0.000000,0.000000,0.000000,0.000000,0.000000,0.000000,0.000000,0.000000,0.000000,0.000000,0.000000,0.000000,0.000000,0.000000,0.000000,0.000000,0.000000,0.000000,0.000000,0.000000,0.000000,,,,,,
4.198146,1779356349.021412,manual_qgc,0,1,4,1,0,0.007368,0.006680,,,0.001534,0.008616,,0.006141,0.003517,-0.038491,0.038491,-1.961509,0.002661,0.008394,0.006798,-0.002828,-0.000908,95.967247,-0.000754,0.000345,-0.000424,0.000237,0.000076,0.000011,0.000000,0.000000,-0.001000,,,,,,,-0.000754,0.000345,-0.000424,0.000237,0.000076,0.000011,0.000000,0.000000,0.000000,0.000000,0.000000,0.000000,0.000000,0.000000,0.000000,0.000000,0.000000,0.000000,0.000000,0.000000,0.000000,0.000000,0.000000,0.000000,0.000000,0.000000,0.000000,,,,,,
4.248063,1779356349.071328,manual_qgc,0,1,4,1,0,0.004349,0.004200,,,0.001541,0.018901,,0.005091,0.002908,-0.038105,0.038105,-1.961895,0.002061,0.007878,0.007436,-0.001048,-0.001566,95.968746,-0.000111,-0.001282,0.000756,0.000088,0.000131,-0.000028,0.000000,0.000000,-0.001000,,,,,,,-0.000111,-0.001282,0.000756,0.000088,0.000131,-0.000028,0.000000,0.000000,0.000000,0.000000,0.000000,0.000000,0.000000,0.000000,0.000000,0.000000,0.000000,0.000000,0.000000,0.000000,0.000000,0.000000,0.000000,0.000000,0.000000,0.000000,0.000000,,,,,,
4.298254,1779356349.121520,manual_qgc,0,1,4,1,0,0.005488,0.007458,,,0.001616,0.008585,,0.004070,0.002591,-0.037742,0.037742,-1.962258,0.001558,0.007587,0.007996,0.001991,-0.001253,95.970929,-0.000562,-0.000024,-0.000550,-0.000158,0.000098,-0.000001,0.000000,0.000000,-0.001000,,,,,,,-0.000562,-0.000024,-0.000550,-0.000158,0.000098,-0.000001,0.000000,0.000000,0.000000,0.000000,0.000000,0.000000,0.000000,0.000000,0.000000,0.000000,0.000000,0.000000,0.000000,0.000000,0.000000,0.000000,0.000000,0.000000,0.000000,0.000000,0.000000,,,,,,
4.348114,1779356349.171379,manual_qgc,0,1,4,1,0,0.003985,0.003823,,,0.001492,0.018451,,0.003100,0.002447,-0.037180,0.037180,-1.962820,0.000832,0.007586,0.008660,0.005788,-0.000604,95.972277,-0.000381,0.000067,-0.000311,-0.000489,0.000047,-0.000003,0.000000,0.000000,-0.001000,,,,,,,-0.000381,0.000067,-0.000311,-0.000489,0.000047,-0.000003,0.000000,0.000000,0.000000,0.000000,0.000000,0.000000,0.000000,0.000000,0.000000,0.000000,0.000000,0.000000,0.000000,0.000000,0.000000,0.000000,0.000000,0.000000,0.000000,0.000000,0.000000,,,,,,
4.398075,1779356349.221340,manual_qgc,0,1,4,1,0,0.007253,0.007079,,,0.001466,0.008553,,0.002283,0.002416,-0.036575,0.036575,-1.963425,0.000322,0.007525,0.009295,0.008282,-0.000971,95.973421,-0.000601,-0.000765,0.000005,-0.000694,0.000081,-0.000017,0.000000,0.000000,-0.001000,,,,,,,-0.000601,-0.000765,0.000005,-0.000694,0.000081,-0.000017,0.000000,0.000000,0.000000,0.000000,0.000000,0.000000,0.000000,0.000000,0.000000,0.000000,0.000000,0.000000,0.000000,0.000000,0.000000,0.000000,0.000000,0.000000,0.000000,0.000000,0.000000,,,,,,
4.448180,1779356349.271445,manual_qgc,0,1,4,1,0,0.004323,0.004169,,,0.001585,0.018900,,0.001495,0.002583,-0.035857,0.035857,-1.964143,-0.000229,0.007694,0.009959,0.011830,-0.002687,95.975359,0.001091,0.000255,0.000297,-0.000991,0.000225,-0.000018,0.000000,0.000000,-0.001000,,,,,,,0.001091,0.000255,0.000297,-0.000991,0.000225,-0.000018,0.000000,0.000000,0.000000,0.000000,0.000000,0.000000,0.000000,0.000000,0.000000,0.000000,0.000000,0.000000,0.000000,0.000000,0.000000,0.000000,0.000000,0.000000,0.000000,0.000000,0.000000,,,,,,
4.498046,1779356349.321311,manual_qgc,0,1,4,1,0,0.005766,0.007424,,,0.001523,0.008377,,0.000809,0.002815,-0.035518,0.035518,-1.964482,-0.000751,0.007857,0.010297,0.014995,-0.006287,95.976502,-0.000443,-0.000251,0.000221,-0.001254,0.000507,-0.000006,0.000000,0.000000,-0.001000,,,,,,,-0.000443,-0.000251,0.000221,-0.001254,0.000507,-0.000006,0.000000,0.000000,0.000000,0.000000,0.000000,0.000000,0.000000,0.000000,0.000000,0.000000,0.000000,0.000000,0.000000,0.000000,0.000000,0.000000,0.000000,0.000000,0.000000,0.000000,0.000000,,,,,,
4.548280,1779356349.371545,manual_qgc,0,1,4,1,0,0.003786,0.003599,,,0.001627,0.018482,,0.000086,0.003161,-0.035553,0.035553,-1.964447,-0.001479,0.008021,0.010201,0.017612,-0.009038,95.977278,-0.000174,0.001121,0.000712,-0.001480,0.000766,-0.000023,0.000000,0.000000,-0.001000,,,,,,,-0.000174,0.001121,0.000712,-0.001480,0.000766,-0.000023,0.000000,0.000000,0.000000,0.000000,0.000000,0.000000,0.000000,0.000000,0.000000,0.000000,0.000000,0.000000,0.000000,0.000000,0.000000,0.000000,0.000000,0.000000,0.000000,0.000000,0.000000,,,,,,
4.598264,1779356349.421530,manual_qgc,0,1,4,1,0,0.005852,0.005688,,,0.001527,0.008697,,-0.000639,0.003666,-0.035931,0.035931,-1.964069,-0.002201,0.008423,0.009931,0.020139,-0.011767,95.978891,0.000742,0.000187,-0.000285,-0.001687,0.000986,-0.000001,0.000000,0.000000,-0.001000,,,,,,,0.000742,0.000187,-0.000285,-0.001687,0.000986,-0.000001,0.000000,0.000000,0.000000,0.000000,0.000000,0.000000,0.000000,0.000000,0.000000,0.000000,0.000000,0.000000,0.000000,0.000000,0.000000,0.000000,0.000000,0.000000,0.000000,0.000000,0.000000,,,,,,
4.648262,1779356349.471528,manual_qgc,0,1,4,1,0,0.003970,0.003781,,,0.001624,0.018939,,-0.001280,0.004364,-0.036551,0.036551,-1.963449,-0.002967,0.009011,0.009512,0.022356,-0.015604,95.981013,0.000353,-0.000532,0.000462,-0.001901,0.001333,-0.000016,0.000000,0.000000,-0.001000,,,,,,,0.000353,-0.000532,0.000462,-0.001901,0.001333,-0.000016,0.000000,0.000000,0.000000,0.000000,0.000000,0.000000,0.000000,0.000000,0.000000,0.000000,0.000000,0.000000,0.000000,0.000000,0.000000,0.000000,0.000000,0.000000,0.000000,0.000000,0.000000,,,,,,
4.698175,1779356349.521441,manual_qgc,0,1,4,1,0,0.007506,0.007360,,,0.001566,0.008676,,-0.001764,0.005157,-0.037417,0.037417,-1.962583,-0.003586,0.009684,0.008805,0.024068,-0.018672,95.982319,0.000884,-0.000394,0.000380,-0.002032,0.001579,-0.000010,0.000000,0.000000,-0.001000,,,,,,,0.000884,-0.000394,0.000380,-0.002032,0.001579,-0.000010,0.000000,0.000000,0.000000,0.000000,0.000000,0.000000,0.000000,0.000000,0.000000,0.000000,0.000000,0.000000,0.000000,0.000000,0.000000,0.000000,0.000000,0.000000,0.000000,0.000000,0.000000,,,,,,
4.748096,1779356349.571362,manual_qgc,0,1,4,1,0,0.004012,0.003853,,,0.001467,0.018748,,-0.002133,0.006040,-0.038450,0.038450,-1.961550,-0.004103,0.010478,0.007826,0.023963,-0.021854,95.983962,-0.000416,0.000531,0.000381,-0.001974,0.001841,-0.000000,0.000000,0.000000,-0.001000,,,,,,,-0.000416,0.000531,0.000381,-0.001974,0.001841,-0.000000,0.000000,0.000000,0.000000,0.000000,0.000000,0.000000,0.000000,0.000000,0.000000,0.000000,0.000000,0.000000,0.000000,0.000000,0.000000,0.000000,0.000000,0.000000,0.000000,0.000000,0.000000,,,,,,
4.798162,1779356349.621427,manual_qgc,0,1,4,1,0,0.007155,0.006613,,,0.001522,0.008496,,-0.002231,0.006741,-0.039452,0.039452,-1.960548,-0.004158,0.010981,0.006950,0.022706,-0.023169,95.984524,0.000301,-0.000435,0.000262,-0.001902,0.001941,-0.000007,0.000000,0.000000,-0.001000,,,,,,,0.000301,-0.000435,0.000262,-0.001902,0.001941,-0.000007,0.000000,0.000000,0.000000,0.000000,0.000000,0.000000,0.000000,0.000000,0.000000,0.000000,0.000000,0.000000,0.000000,0.000000,0.000000,0.000000,0.000000,0.000000,0.000000,0.000000,0.000000,,,,,,
4.848159,1779356349.671424,manual_qgc,0,1,4,1,0,0.003060,0.002857,,,0.001524,0.018646,,-0.002150,0.007423,-0.040607,0.040607,-1.959393,-0.003749,0.011125,0.005852,0.019780,-0.023235,95.983953,-0.001323,-0.001170,-0.000371,-0.001657,0.001946,0.000010,0.000000,0.000000,-0.001000,,,,,,,-0.001323,-0.001170,-0.000371,-0.001657,0.001946,0.000010,0.000000,0.000000,0.000000,0.000000,0.000000,0.000000,0.000000,0.000000,0.000000,0.000000,0.000000,0.000000,0.000000,0.000000,0.000000,0.000000,0.000000,0.000000,0.000000,0.000000,0.000000,,,,,,
4.898102,1779356349.721367,manual_qgc,0,1,4,1,0,0.007432,0.007154,,,0.001202,0.008333,,-0.001907,0.007824,-0.041413,0.041413,-1.958587,-0.003380,0.011285,0.005059,0.017797,-0.022050,95.982503,-0.001689,0.000014,-0.000604,-0.001450,0.001831,0.000001,0.000000,0.000000,-0.001000,,,,,,,-0.001689,0.000014,-0.000604,-0.001450,0.001831,0.000001,0.000000,0.000000,0.000000,0.000000,0.000000,0.000000,0.000000,0.000000,0.000000,0.000000,0.000000,0.000000,0.000000,0.000000,0.000000,0.000000,0.000000,0.000000,0.000000,0.000000,0.000000,,,,,,
4.948110,1779356349.771375,manual_qgc,0,1,4,1,0,0.003460,0.003271,,,0.001474,0.018895,,-0.001366,0.008299,-0.042737,0.042737,-1.957263,-0.002439,0.011333,0.004226,0.012877,-0.019264,95.981156,-0.000368,0.000080,-0.000155,-0.001033,0.001607,0.000008,0.000000,0.000000,-0.001000,,,,,,,-0.000368,0.000080,-0.000155,-0.001033,0.001607,0.000008,0.000000,0.000000,0.000000,0.000000,0.000000,0.000000,0.000000,0.000000,0.000000,0.000000,0.000000,0.000000,0.000000,0.000000,0.000000,0.000000,0.000000,0.000000,0.000000,0.000000,0.000000,,,,,,
4.998113,1779356349.821378,manual_qgc,0,1,4,1,0,0.007371,0.006756,,,0.001545,0.008394,,-0.000678,0.008456,-0.043952,0.043952,-1.956048,-0.001406,0.011041,0.003189,0.008016,-0.016480,95.979013,-0.001519,-0.000991,-0.001717,-0.000672,0.001381,0.000047,0.000000,0.000000,-0.001000,,,,,,,-0.001519,-0.000991,-0.001717,-0.000672,0.001381,0.000047,0.000000,0.000000,0.000000,0.000000,0.000000,0.000000,0.000000,0.000000,0.000000,0.000000,0.000000,0.000000,0.000000,0.000000,0.000000,0.000000,0.000000,0.000000,0.000000,0.000000,0.000000,,,,,,
5.048215,1779356349.871480,manual_qgc,0,1,4,1,0,0.003087,0.002851,,,0.001559,0.018446,,0.000164,0.008341,-0.045184,0.045184,-1.954816,-0.000233,0.010619,0.002522,0.004415,-0.011507,95.976747,-0.000632,0.000614,0.001056,-0.000314,0.000921,0.000035,0.000000,0.000000,-0.001000,,,,,,,-0.000632,0.000614,0.001056,-0.000314,0.000921,0.000035,0.000000,0.000000,0.000000,0.000000,0.000000,0.000000,0.000000,0.000000,0.000000,0.000000,0.000000,0.000000,0.000000,0.000000,0.000000,0.000000,0.000000,0.000000,0.000000,0.000000,0.000000,,,,,,
5.098181,1779356349.921447,manual_qgc,0,1,4,1,0,0.007332,0.006692,,,0.001432,0.008550,,0.001022,0.007946,-0.046458,0.046458,-1.953542,0.001050,0.009899,0.001562,0.000935,-0.007234,95.973451,0.000343,-0.000254,-0.000455,-0.000042,0.000570,0.000007,0.000000,0.000000,-0.001000,,,,,,,0.000343,-0.000254,-0.000455,-0.000042,0.000570,0.000007,0.000000,0.000000,0.000000,0.000000,0.000000,0.000000,0.000000,0.000000,0.000000,0.000000,0.000000,0.000000,0.000000,0.000000,0.000000,0.000000,0.000000,0.000000,0.000000,0.000000,0.000000,,,,,,
5.148126,1779356349.971391,manual_qgc,0,1,4,1,0,0.003977,0.003808,,,0.001521,0.018780,,0.001944,0.007295,-0.048058,0.048058,-1.951942,0.002375,0.008824,0.000698,-0.002800,-0.001282,95.970562,-0.001355,0.000567,-0.000345,0.000275,0.000072,0.000006,0.000000,0.000000,-0.001000,,,,,,,-0.001355,0.000567,-0.000345,0.000275,0.000072,0.000006,0.000000,0.000000,0.000000,0.000000,0.000000,0.000000,0.000000,0.000000,0.000000,0.000000,0.000000,0.000000,0.000000,0.000000,0.000000,0.000000,0.000000,0.000000,0.000000,0.000000,0.000000,,,,,,
5.198285,1779356350.021550,manual_qgc,0,1,4,1,0,0.007659,0.007235,,,0.001671,0.009057,,0.002602,0.006587,-0.049372,0.049372,-1.950628,0.003260,0.007810,-0.000212,-0.005896,0.005301,95.967410,-0.000380,0.000822,-0.001083,0.000494,-0.000444,0.000031,0.000000,0.000000,-0.001000,,,,,,,-0.000380,0.000822,-0.001083,0.000494,-0.000444,0.000031,0.000000,0.000000,0.000000,0.000000,0.000000,0.000000,0.000000,0.000000,0.000000,0.000000,0.000000,0.000000,0.000000,0.000000,0.000000,0.000000,0.000000,0.000000,0.000000,0.000000,0.000000,,,,,,
5.248107,1779356350.071373,manual_qgc,0,1,4,1,0,0.004266,0.003701,,,0.001513,0.018761,,0.003147,0.005650,-0.050785,0.050785,-1.949215,0.004034,0.006474,-0.001005,-0.006306,0.010846,95.965848,0.000276,0.000089,-0.000736,0.000528,-0.000909,0.000024,0.000000,0.000000,-0.001000,,,,,,,0.000276,0.000089,-0.000736,0.000528,-0.000909,0.000024,0.000000,0.000000,0.000000,0.000000,0.000000,0.000000,0.000000,0.000000,0.000000,0.000000,0.000000,0.000000,0.000000,0.000000,0.000000,0.000000,0.000000,0.000000,0.000000,0.000000,0.000000,,,,,,
5.298006,1779356350.121272,manual_qgc,0,1,4,1,0,0.005847,0.007308,,,0.001430,0.008479,,0.003437,0.004708,-0.051811,0.051811,-1.948189,0.004476,0.005295,-0.001643,-0.005436,0.015407,95.965114,-0.000299,0.000009,0.000260,0.000457,-0.001257,0.000005,0.000000,0.000000,-0.001000,,,,,,,-0.000299,0.000009,0.000260,0.000457,-0.001257,0.000005,0.000000,0.000000,0.000000,0.000000,0.000000,0.000000,0.000000,0.000000,0.000000,0.000000,0.000000,0.000000,0.000000,0.000000,0.000000,0.000000,0.000000,0.000000,0.000000,0.000000,0.000000,,,,,,
5.348218,1779356350.171483,manual_qgc,0,1,4,1,0,0.004061,0.003924,,,0.001644,0.018941,,0.003692,0.003676,-0.052569,0.052569,-1.947431,0.004990,0.003907,-0.002092,-0.004007,0.019837,95.963410,-0.000305,-0.000151,-0.000656,0.000338,-0.001687,0.000013,0.000000,0.000000,-0.001000,,,,,,,-0.000305,-0.000151,-0.000656,0.000338,-0.001687,0.000013,0.000000,0.000000,0.000000,0.000000,0.000000,0.000000,0.000000,0.000000,0.000000,0.000000,0.000000,0.000000,0.000000,0.000000,0.000000,0.000000,0.000000,0.000000,0.000000,0.000000,0.000000,,,,,,
5.398124,1779356350.221389,manual_qgc,0,1,4,1,0,0.007529,0.007081,,,0.001497,0.008850,,0.003930,0.002664,-0.053133,0.053133,-1.946867,0.005441,0.002660,-0.002456,-0.001634,0.024733,95.962157,0.000103,-0.000015,-0.001396,0.000137,-0.002072,0.000033,0.000000,0.000000,-0.001000,,,,,,,0.000103,-0.000015,-0.001396,0.000137,-0.002072,0.000033,0.000000,0.000000,0.000000,0.000000,0.000000,0.000000,0.000000,0.000000,0.000000,0.000000,0.000000,0.000000,0.000000,0.000000,0.000000,0.000000,0.000000,0.000000,0.000000,0.000000,0.000000,,,,,,
5.448002,1779356350.271267,manual_qgc,0,1,4,1,0,0.005392,0.005230,,,0.001485,0.018748,,0.004111,0.001762,-0.053636,0.053636,-1.946364,0.005666,0.001476,-0.002843,-0.000179,0.029495,95.959965,0.000005,0.000492,-0.000326,0.000018,-0.002488,0.000000,0.000000,0.000000,-0.001000,,,,,,,0.000005,0.000492,-0.000326,0.000018,-0.002488,0.000000,0.000000,0.000000,0.000000,0.000000,0.000000,0.000000,0.000000,0.000000,0.000000,0.000000,0.000000,0.000000,0.000000,0.000000,0.000000,0.000000,0.000000,0.000000,0.000000,0.000000,0.000000,,,,,,
5.498074,1779356350.321340,manual_qgc,0,1,4,1,0,0.005530,0.007380,,,0.001475,0.008582,,0.004160,0.001127,-0.054047,0.054047,-1.945953,0.005740,0.000572,-0.002861,0.000523,0.031448,95.958782,0.000590,0.000209,-0.001134,-0.000021,-0.002625,0.000007,0.000000,0.000000,-0.001000,,,,,,,0.000590,0.000209,-0.001134,-0.000021,-0.002625,0.000007,0.000000,0.000000,0.000000,0.000000,0.000000,0.000000,0.000000,0.000000,0.000000,0.000000,0.000000,0.000000,0.000000,0.000000,0.000000,0.000000,0.000000,0.000000,0.000000,0.000000,0.000000,,,,,,
5.548242,1779356350.371507,manual_qgc,0,1,4,1,0,0.004350,0.004204,,,0.001663,0.018792,,0.004079,0.000794,-0.054394,0.054394,-1.945606,0.005672,0.000020,-0.003023,0.003863,0.031938,95.957967,-0.000512,0.000155,-0.000657,-0.000320,-0.002676,0.000004,0.000000,0.000000,-0.001000,,,,,,,-0.000512,0.000155,-0.000657,-0.000320,-0.002676,0.000004,0.000000,0.000000,0.000000,0.000000,0.000000,0.000000,0.000000,0.000000,0.000000,0.000000,0.000000,0.000000,0.000000,0.000000,0.000000,0.000000,0.000000,0.000000,0.000000,0.000000,0.000000,,,,,,
5.598257,1779356350.421522,manual_qgc,0,1,4,1,0,0.007324,0.007004,,,0.001668,0.008712,,0.003774,0.000619,-0.054774,0.054774,-1.945226,0.005235,-0.000303,-0.003244,0.005358,0.031770,95.958161,-0.000262,0.000337,-0.001251,-0.000449,-0.002662,0.000007,0.000000,0.000000,-0.001000,,,,,,,-0.000262,0.000337,-0.001251,-0.000449,-0.002662,0.000007,0.000000,0.000000,0.000000,0.000000,0.000000,0.000000,0.000000,0.000000,0.000000,0.000000,0.000000,0.000000,0.000000,0.000000,0.000000,0.000000,0.000000,0.000000,0.000000,0.000000,0.000000,,,,,,
5.648139,1779356350.471405,manual_qgc,0,1,4,1,0,0.004094,0.003901,,,0.001454,0.018799,,0.003392,0.000694,-0.055240,0.055240,-1.944760,0.004720,-0.000430,-0.003388,0.008067,0.030501,95.959560,0.000101,0.000171,-0.000547,-0.000709,-0.002518,-0.000003,0.000000,0.000000,-0.001000,,,,,,,0.000101,0.000171,-0.000547,-0.000709,-0.002518,-0.000003,0.000000,0.000000,0.000000,0.000000,0.000000,0.000000,0.000000,0.000000,0.000000,0.000000,0.000000,0.000000,0.000000,0.000000,0.000000,0.000000,0.000000,0.000000,0.000000,0.000000,0.000000,,,,,,
5.698152,1779356350.521417,manual_qgc,0,1,4,1,0,0.005628,0.007267,,,0.001569,0.008720,,0.002887,0.001136,-0.055746,0.055746,-1.944254,0.004057,-0.000211,-0.003544,0.010930,0.028042,95.960550,0.001493,0.000307,-0.000034,-0.000875,-0.002365,-0.000005,0.000000,0.000000,-0.001000,,,,,,,0.001493,0.000307,-0.000034,-0.000875,-0.002365,-0.000005,0.000000,0.000000,0.000000,0.000000,0.000000,0.000000,0.000000,0.000000,0.000000,0.000000,0.000000,0.000000,0.000000,0.000000,0.000000,0.000000,0.000000,0.000000,0.000000,0.000000,0.000000,,,,,,
5.748127,1779356350.571392,manual_qgc,0,1,4,1,0,0.003854,0.003618,,,0.001427,0.018704,,0.002501,0.001663,-0.056043,0.056043,-1.943957,0.003761,-0.000114,-0.003657,0.013420,0.024797,95.960712,0.000270,0.000823,-0.001574,-0.001138,-0.002073,-0.000006,0.000000,0.000000,-0.001000,,,,,,,0.000270,0.000823,-0.001574,-0.001138,-0.002073,-0.000006,0.000000,0.000000,0.000000,0.000000,0.000000,0.000000,0.000000,0.000000,0.000000,0.000000,0.000000,0.000000,0.000000,0.000000,0.000000,0.000000,0.000000,0.000000,0.000000,0.000000,0.000000,,,,,,
5.798115,1779356350.621380,manual_qgc,0,1,4,1,0,0.002440,0.002249,,,0.001240,0.008487,,0.002012,0.002286,-0.056223,0.056223,-1.943777,0.003324,0.000126,-0.003550,0.014584,0.022423,95.960426,-0.000417,-0.000867,-0.000744,-0.001222,-0.001878,0.000002,0.000000,0.000000,-0.001000,,,,,,,-0.000417,-0.000867,-0.000744,-0.001222,-0.001878,0.000002,0.000000,0.000000,0.000000,0.000000,0.000000,0.000000,0.000000,0.000000,0.000000,0.000000,0.000000,0.000000,0.000000,0.000000,0.000000,0.000000,0.000000,0.000000,0.000000,0.000000,0.000000,,,,,,
5.848204,1779356350.671469,manual_qgc,0,1,4,1,0,0.012901,0.012744,,,0.001512,0.018446,,0.001503,0.002872,-0.056303,0.056303,-1.943697,0.002882,0.000492,-0.003410,0.014711,0.019597,95.961711,-0.000918,0.000044,0.000249,-0.001232,-0.001642,-0.000008,0.000000,0.000000,-0.001000,,,,,,,-0.000918,0.000044,0.000249,-0.001232,-0.001642,-0.000008,0.000000,0.000000,0.000000,0.000000,0.000000,0.000000,0.000000,0.000000,0.000000,0.000000,0.000000,0.000000,0.000000,0.000000,0.000000,0.000000,0.000000,0.000000,0.000000,0.000000,0.000000,,,,,,
5.897986,1779356350.721251,manual_qgc,0,1,4,1,0,0.002257,0.003067,,,0.001667,0.008808,,0.000578,0.003707,-0.056720,0.056720,-1.943280,0.002205,0.000893,-0.003620,0.016165,0.017812,95.963640,-0.000269,-0.000378,0.000030,-0.001353,-0.001514,-0.000007,0.000000,0.000000,-0.001000,,,,,,,-0.000269,-0.000378,0.000030,-0.001353,-0.001514,-0.000007,0.000000,0.000000,0.000000,0.000000,0.000000,0.000000,0.000000,0.000000,0.000000,0.000000,0.000000,0.000000,0.000000,0.000000,0.000000,0.000000,0.000000,0.000000,0.000000,0.000000,0.000000,,,,,,
5.948152,1779356350.771417,manual_qgc,0,1,4,1,0,0.012696,0.012527,,,0.001553,0.018544,,0.000119,0.004095,-0.056888,0.056888,-1.943112,0.001902,0.000973,-0.003799,0.016197,0.017219,95.963741,0.000217,0.000742,-0.000827,-0.001343,-0.001446,0.000005,0.000000,0.000000,-0.001000,,,,,,,0.000217,0.000742,-0.000827,-0.001343,-0.001446,0.000005,0.000000,0.000000,0.000000,0.000000,0.000000,0.000000,0.000000,0.000000,0.000000,0.000000,0.000000,0.000000,0.000000,0.000000,0.000000,0.000000,0.000000,0.000000,0.000000,0.000000,0.000000,,,,,,
5.998095,1779356350.821360,manual_qgc,0,1,4,1,0,0.002603,0.002357,,,0.001331,0.008733,,-0.000677,0.004889,-0.057182,0.057182,-1.942818,0.001516,0.001251,-0.003959,0.016191,0.017258,95.964496,-0.000182,-0.000269,0.000632,-0.001356,-0.001446,-0.000018,0.000000,0.000000,-0.001000,,,,,,,-0.000182,-0.000269,0.000632,-0.001356,-0.001446,-0.000018,0.000000,0.000000,0.000000,0.000000,0.000000,0.000000,0.000000,0.000000,0.000000,0.000000,0.000000,0.000000,0.000000,0.000000,0.000000,0.000000,0.000000,0.000000,0.000000,0.000000,0.000000,,,,,,
6.048191,1779356350.871456,manual_qgc,0,1,4,1,0,0.012777,0.012601,,,0.001580,0.018425,,-0.001063,0.005512,-0.057368,0.057368,-1.942632,0.001455,0.001621,-0.004051,0.015896,0.016850,95.964771,0.000322,0.000674,-0.000283,-0.001332,-0.001412,0.000010,0.000000,0.000000,-0.001000,,,,,,,0.000322,0.000674,-0.000283,-0.001332,-0.001412,0.000010,0.000000,0.000000,0.000000,0.000000,0.000000,0.000000,0.000000,0.000000,0.000000,0.000000,0.000000,0.000000,0.000000,0.000000,0.000000,0.000000,0.000000,0.000000,0.000000,0.000000,0.000000,,,,,,
6.098147,1779356350.921412,manual_qgc,0,1,4,1,0,0.000569,0.002404,,,0.001219,0.008820,,-0.001461,0.006516,-0.057694,0.057694,-1.942306,0.001747,0.002024,-0.004190,0.014190,0.015978,95.966383,0.000441,0.000940,-0.000331,-0.001193,-0.001325,-0.000007,0.000000,0.000000,-0.001000,,,,,,,-0.000800,-0.000153,0.000566,-0.001193,-0.001325,-0.000007,0.000000,0.000000,0.000000,0.000000,0.000000,0.000000,0.000000,0.000000,0.000000,0.000000,0.000000,0.000000,0.000000,0.000000,0.000000,0.000000,0.000000,0.000000,0.000000,0.000000,0.000000,,,,,,
6.148004,1779356350.971269,manual_qgc,0,1,4,1,0,0.010834,0.012546,,,0.001495,0.018531,,-0.001591,0.007113,-0.057929,0.057929,-1.942071,0.001788,0.002424,-0.004231,0.012792,0.015849,95.966494,0.000006,-0.000327,-0.000323,-0.001086,-0.001337,-0.000002,0.000000,0.000000,-0.001000,,,,,,,0.000006,-0.000327,-0.000323,-0.001086,-0.001337,-0.000002,0.000000,0.000000,0.000000,0.000000,0.000000,0.000000,0.000000,0.000000,0.000000,0.000000,0.000000,0.000000,0.000000,0.000000,0.000000,0.000000,0.000000,0.000000,0.000000,0.000000,0.000000,,,,,,
6.197984,1779356351.021249,manual_qgc,0,1,4,1,0,0.002745,0.002614,,,0.001574,0.008459,,-0.001704,0.007921,-0.058203,0.058203,-1.941797,0.002174,0.002746,-0.004508,0.011541,0.016753,95.968474,-0.000496,-0.000751,-0.000189,-0.000967,-0.001403,-0.000009,0.000000,0.000000,-0.001000,,,,,,,-0.000496,-0.000751,-0.000189,-0.000967,-0.001403,-0.000009,0.000000,0.000000,0.000000,0.000000,0.000000,0.000000,0.000000,0.000000,0.000000,0.000000,0.000000,0.000000,0.000000,0.000000,0.000000,0.000000,0.000000,0.000000,0.000000,0.000000,0.000000,,,,,,
6.248309,1779356351.071574,manual_qgc,0,1,4,1,0,0.000354,0.000238,,,0.001821,0.018982,,-0.001750,0.008724,-0.058386,0.058386,-1.941614,0.002285,0.003255,-0.004757,0.008963,0.016438,95.969514,0.000335,-0.000169,0.000047,-0.000751,-0.001377,-0.000010,0.000000,0.000000,-0.001000,,,,,,,0.000824,0.000458,0.000026,-0.000781,-0.001398,-0.000018,0.000000,0.000000,0.000000,0.000000,0.000000,0.000000,0.000000,0.000000,0.000000,0.000000,0.000000,0.000000,0.000000,0.000000,0.000000,0.000000,0.000000,0.000000,0.000000,0.000000,0.000000,,,,,,
6.298005,1779356351.121270,manual_qgc,0,1,4,1,0,0.000497,0.002498,,,0.001268,0.008032,,-0.001770,0.009441,-0.058616,0.058616,-1.941384,0.002616,0.003683,-0.004926,0.007015,0.015655,95.970413,-0.000107,-0.000401,-0.000229,-0.000600,-0.001326,-0.000007,0.000000,0.000000,-0.001000,,,,,,,0.000499,0.000807,0.000308,-0.000600,-0.001326,-0.000007,0.000000,0.000000,0.000000,0.000000,0.000000,0.000000,0.000000,0.000000,0.000000,0.000000,0.000000,0.000000,0.000000,0.000000,0.000000,0.000000,0.000000,0.000000,0.000000,0.000000,0.000000,,,,,,
6.348129,1779356351.171395,manual_qgc,0,1,4,1,0,0.010619,0.012877,,,0.001501,0.018636,,-0.001774,0.010095,-0.058948,0.058948,-1.941052,0.002776,0.004159,-0.005139,0.005374,0.013362,95.971033,-0.000408,-0.000762,0.000760,-0.000467,-0.001143,0.000001,0.000000,0.000000,-0.001000,,,,,,,-0.000408,-0.000762,0.000760,-0.000467,-0.001143,0.000001,0.000000,0.000000,0.000000,0.000000,0.000000,0.000000,0.000000,0.000000,0.000000,0.000000,0.000000,0.000000,0.000000,0.000000,0.000000,0.000000,0.000000,0.000000,0.000000,0.000000,0.000000,,,,,,
6.398067,1779356351.221332,manual_qgc,0,1,4,1,0,0.002495,0.002335,,,0.001559,0.008436,,-0.001895,0.011246,-0.059627,0.059627,-1.940373,0.002692,0.004961,-0.005671,0.004955,0.010852,95.972400,0.000715,0.000249,0.000027,-0.000415,-0.000909,-0.000005,0.000000,0.000000,-0.001000,,,,,,,0.000715,0.000249,0.000027,-0.000415,-0.000909,-0.000005,0.000000,0.000000,0.000000,0.000000,0.000000,0.000000,0.000000,0.000000,0.000000,0.000000,0.000000,0.000000,0.000000,0.000000,0.000000,0.000000,0.000000,0.000000,0.000000,0.000000,0.000000,,,,,,
6.448162,1779356351.271427,manual_qgc,0,1,4,1,0,0.012630,0.012450,,,0.001518,0.018582,,-0.002068,0.012057,-0.060114,0.060114,-1.939886,0.002426,0.005460,-0.006069,0.005774,0.007707,95.974023,0.000579,-0.000275,0.000688,-0.000484,-0.000646,-0.000018,0.000000,0.000000,-0.001000,,,,,,,0.000579,-0.000275,0.000688,-0.000484,-0.000646,-0.000018,0.000000,0.000000,0.000000,0.000000,0.000000,0.000000,0.000000,0.000000,0.000000,0.000000,0.000000,0.000000,0.000000,0.000000,0.000000,0.000000,0.000000,0.000000,0.000000,0.000000,0.000000,,,,,,
6.498046,1779356351.321312,manual_qgc,0,1,4,1,0,0.001619,0.002731,,,0.001234,0.007665,,-0.002341,0.013210,-0.060711,0.060711,-1.939289,0.001991,0.006074,-0.006664,0.007821,0.005246,95.976033,-0.000391,0.000167,0.000998,-0.000657,-0.000453,-0.000006,0.000000,0.000000,-0.001000,,,,,,,0.000081,0.001161,0.000665,-0.000657,-0.000453,-0.000006,0.000000,0.000000,0.000000,0.000000,0.000000,0.000000,0.000000,0.000000,0.000000,0.000000,0.000000,0.000000,0.000000,0.000000,0.000000,0.000000,0.000000,0.000000,0.000000,0.000000,0.000000,,,,,,
6.548099,1779356351.371365,manual_qgc,0,1,4,1,0,0.012301,0.012066,,,0.001248,0.018445,,-0.002496,0.013666,-0.060831,0.060831,-1.939169,0.001784,0.006195,-0.006710,0.009224,0.003539,95.977003,0.000763,-0.000480,-0.000860,-0.000794,-0.000263,0.000004,0.000000,0.000000,-0.001000,,,,,,,0.000763,-0.000480,-0.000860,-0.000794,-0.000263,0.000004,0.000000,0.000000,0.000000,0.000000,0.000000,0.000000,0.000000,0.000000,0.000000,0.000000,0.000000,0.000000,0.000000,0.000000,0.000000,0.000000,0.000000,0.000000,0.000000,0.000000,0.000000,,,,,,
6.598115,1779356351.421380,manual_qgc,0,1,4,1,0,0.002364,0.002033,,,0.001099,0.008931,,-0.002655,0.014412,-0.060829,0.060829,-1.939171,0.001364,0.006471,-0.006709,0.011047,0.000569,95.977258,0.000124,0.000400,-0.000531,-0.000925,-0.000048,0.000013,0.000000,0.000000,-0.001000,,,,,,,0.000124,0.000400,-0.000531,-0.000925,-0.000048,0.000013,0.000000,0.000000,0.000000,0.000000,0.000000,0.000000,0.000000,0.000000,0.000000,0.000000,0.000000,0.000000,0.000000,0.000000,0.000000,0.000000,0.000000,0.000000,0.000000,0.000000,0.000000,,,,,,
6.648130,1779356351.471395,manual_qgc,0,1,4,1,0,0.012608,0.011882,,,0.001481,0.018233,,-0.002603,0.014780,-0.060598,0.060598,-1.939402,0.001244,0.006435,-0.006615,0.011604,0.000177,95.976584,0.000261,0.000508,-0.000192,-0.000972,-0.000015,0.000013,0.000000,0.000000,-0.001000,,,,,,,0.000261,0.000508,-0.000192,-0.000972,-0.000015,0.000013,0.000000,0.000000,0.000000,0.000000,0.000000,0.000000,0.000000,0.000000,0.000000,0.000000,0.000000,0.000000,0.000000,0.000000,0.000000,0.000000,0.000000,0.000000,0.000000,0.000000,0.000000,,,,,,
6.701181,1779356351.524446,manual_qgc,0,1,4,1,0,0.000916,0.005607,,,0.004240,0.011098,,-0.002534,0.015044,-0.059661,0.059661,-1.940339,0.000955,0.006132,-0.006113,0.011954,0.001367,95.974779,-0.000760,0.000797,-0.000323,-0.001006,-0.000090,0.000007,0.000000,0.000000,-0.001000,,,,,,,-0.000040,-0.000772,-0.000589,-0.001006,-0.000090,0.000007,0.000000,0.000000,0.000000,0.000000,0.000000,0.000000,0.000000,0.000000,0.000000,0.000000,0.000000,0.000000,0.000000,0.000000,0.000000,0.000000,0.000000,0.000000,0.000000,0.000000,0.000000,,,,,,
6.748186,1779356351.571452,manual_qgc,0,1,4,1,0,0.011062,0.012633,,,0.001622,0.018346,,-0.002564,0.015104,-0.058807,0.058807,-1.941193,0.000851,0.005832,-0.005580,0.012951,0.003164,95.973636,-0.000581,-0.000491,-0.001016,-0.001085,-0.000262,0.000011,0.000000,0.000000,-0.001000,,,,,,,-0.000581,-0.000491,-0.001016,-0.001085,-0.000262,0.000011,0.000000,0.000000,0.000000,0.000000,0.000000,0.000000,0.000000,0.000000,0.000000,0.000000,0.000000,0.000000,0.000000,0.000000,0.000000,0.000000,0.000000,0.000000,0.000000,0.000000,0.000000,,,,,,
6.798140,1779356351.621405,manual_qgc,0,1,4,1,0,0.002852,0.002714,,,0.001635,0.008514,,-0.002776,0.015003,-0.057701,0.057701,-1.942299,0.000498,0.005029,-0.004993,0.016412,0.006415,95.972218,-0.000244,-0.000471,0.000315,-0.001375,-0.000537,0.000007,0.000000,0.000000,-0.001000,,,,,,,-0.000244,-0.000471,0.000315,-0.001375,-0.000537,0.000007,0.000000,0.000000,0.000000,0.000000,0.000000,0.000000,0.000000,0.000000,0.000000,0.000000,0.000000,0.000000,0.000000,0.000000,0.000000,0.000000,0.000000,0.000000,0.000000,0.000000,0.000000,,,,,,
6.848242,1779356351.671507,manual_qgc,0,1,4,1,0,0.012606,0.012362,,,0.001609,0.018064,,-0.003038,0.014830,-0.056916,0.056916,-1.943084,0.000023,0.004356,-0.004483,0.018040,0.009050,95.970015,-0.000189,0.000064,0.000082,-0.001511,-0.000758,0.000015,0.000000,0.000000,-0.001000,,,,,,,-0.000189,0.000064,0.000082,-0.001511,-0.000758,0.000015,0.000000,0.000000,0.000000,0.000000,0.000000,0.000000,0.000000,0.000000,0.000000,0.000000,0.000000,0.000000,0.000000,0.000000,0.000000,0.000000,0.000000,0.000000,0.000000,0.000000,0.000000,,,,,,
6.898016,1779356351.721281,manual_qgc,0,1,4,1,0,0.000711,0.002652,,,0.001333,0.008697,,-0.003797,0.014682,-0.055820,0.055820,-1.944180,-0.000939,0.003501,-0.004088,0.023695,0.012859,95.967518,0.000563,-0.001204,-0.000321,-0.001949,-0.001087,0.000009,0.000000,0.000000,-0.001000,,,,,,,-0.000016,0.000141,0.001189,-0.001949,-0.001087,0.000009,0.000000,0.000000,0.000000,0.000000,0.000000,0.000000,0.000000,0.000000,0.000000,0.000000,0.000000,0.000000,0.000000,0.000000,0.000000,0.000000,0.000000,0.000000,0.000000,0.000000,0.000000,,,,,,
6.948163,1779356351.771429,manual_qgc,0,1,4,1,0,0.000282,0.012735,,,0.001719,0.018174,,-0.004454,0.014731,-0.055080,0.055080,-1.944920,-0.001855,0.002969,-0.003791,0.026707,0.013756,95.966203,-0.000277,0.000007,-0.001163,-0.002171,-0.001114,0.000002,0.000000,0.000000,-0.001000,,,,,,,0.000141,0.000318,-0.000007,-0.002171,-0.001114,0.000002,0.000000,0.000000,0.000000,0.000000,0.000000,0.000000,0.000000,0.000000,0.000000,0.000000,0.000000,0.000000,0.000000,0.000000,0.000000,0.000000,0.000000,0.000000,0.000000,0.000000,0.000000,,,,,,
6.998017,1779356351.821282,manual_qgc,0,1,4,1,0,0.002740,0.002605,,,0.001483,0.008294,,-0.005144,0.014979,-0.054421,0.054421,-1.945579,-0.002677,0.002572,-0.003539,0.028617,0.014243,95.965296,-0.000309,-0.000362,-0.000423,-0.002397,-0.001193,0.000011,0.000000,0.000000,-0.001000,,,,,,,-0.000309,-0.000362,-0.000423,-0.002397,-0.001193,0.000011,0.000000,0.000000,0.000000,0.000000,0.000000,0.000000,0.000000,0.000000,0.000000,0.000000,0.000000,0.000000,0.000000,0.000000,0.000000,0.000000,0.000000,0.000000,0.000000,0.000000,0.000000,,,,,,
7.048098,1779356351.871363,manual_qgc,0,1,4,1,0,0.012458,0.011355,,,0.001534,0.017995,,-0.005786,0.015252,-0.053966,0.053966,-1.946034,-0.003311,0.002514,-0.003436,0.030304,0.014697,95.965521,-0.000182,-0.000195,0.000458,-0.002539,-0.001231,-0.000015,0.000000,0.000000,-0.001000,,,,,,,-0.000182,-0.000195,0.000458,-0.002539,-0.001231,-0.000015,0.000000,0.000000,0.000000,0.000000,0.000000,0.000000,0.000000,0.000000,0.000000,0.000000,0.000000,0.000000,0.000000,0.000000,0.000000,0.000000,0.000000,0.000000,0.000000,0.000000,0.000000,,,,,,
7.097991,1779356351.921257,manual_qgc,0,1,4,1,0,0.002740,0.002613,,,0.001511,0.008476,,-0.006731,0.015755,-0.053293,0.053293,-1.946707,-0.004183,0.002592,-0.003193,0.033585,0.013727,95.964491,-0.000064,-0.000026,-0.001367,-0.002808,-0.001145,0.000018,0.000000,0.000000,-0.001000,,,,,,,-0.000064,-0.000026,-0.001367,-0.002808,-0.001145,0.000018,0.000000,0.000000,0.000000,0.000000,0.000000,0.000000,0.000000,0.000000,0.000000,0.000000,0.000000,0.000000,0.000000,0.000000,0.000000,0.000000,0.000000,0.000000,0.000000,0.000000,0.000000,,,,,,
7.148065,1779356351.971330,manual_qgc,0,1,4,1,0,0.012762,0.012634,,,0.001587,0.018610,,-0.007438,0.016085,-0.052873,0.052873,-1.947127,-0.004759,0.002616,-0.002988,0.034711,0.013054,95.963502,0.000013,-0.000384,0.000464,-0.002913,-0.001088,-0.000009,0.000000,0.000000,-0.001000,,,,,,,0.000013,-0.000384,0.000464,-0.002913,-0.001088,-0.000009,0.000000,0.000000,0.000000,0.000000,0.000000,0.000000,0.000000,0.000000,0.000000,0.000000,0.000000,0.000000,0.000000,0.000000,0.000000,0.000000,0.000000,0.000000,0.000000,0.000000,0.000000,,,,,,
7.197997,1779356352.021263,manual_qgc,0,1,4,1,0,0.002611,0.002414,,,0.001453,0.008436,,-0.008688,0.016381,-0.052290,0.052290,-1.947710,-0.005747,0.002297,-0.002872,0.036611,0.012373,95.964196,0.000028,0.000731,-0.001340,-0.003067,-0.001037,0.000030,0.000000,0.000000,-0.001000,,,,,,,0.000028,0.000731,-0.001340,-0.003067,-0.001037,0.000030,0.000000,0.000000,0.000000,0.000000,0.000000,0.000000,0.000000,0.000000,0.000000,0.000000,0.000000,0.000000,0.000000,0.000000,0.000000,0.000000,0.000000,0.000000,0.000000,0.000000,0.000000,,,,,,
7.248222,1779356352.071488,manual_qgc,0,1,4,1,0,0.012959,0.012559,,,0.001688,0.018764,,-0.009598,0.016532,-0.051920,0.051920,-1.948080,-0.006478,0.002069,-0.002674,0.038339,0.012094,95.963636,0.000477,0.000632,-0.000566,-0.003212,-0.001013,0.000009,0.000000,0.000000,-0.001000,,,,,,,0.000477,0.000632,-0.000566,-0.003212,-0.001013,0.000009,0.000000,0.000000,0.000000,0.000000,0.000000,0.000000,0.000000,0.000000,0.000000,0.000000,0.000000,0.000000,0.000000,0.000000,0.000000,0.000000,0.000000,0.000000,0.000000,0.000000,0.000000,,,,,,
7.298123,1779356352.121388,manual_qgc,0,1,4,1,0,0.002558,0.002307,,,0.001348,0.007884,,-0.010927,0.016925,-0.051315,0.051315,-1.948685,-0.007648,0.002123,-0.002319,0.040933,0.008650,95.963268,-0.000523,-0.001052,0.000622,-0.003449,-0.000716,-0.000003,0.000000,0.000000,-0.001000,,,,,,,-0.000523,-0.001052,0.000622,-0.003449,-0.000716,-0.000003,0.000000,0.000000,0.000000,0.000000,0.000000,0.000000,0.000000,0.000000,0.000000,0.000000,0.000000,0.000000,0.000000,0.000000,0.000000,0.000000,0.000000,0.000000,0.000000,0.000000,0.000000,,,,,,
7.348049,1779356352.171314,manual_qgc,0,1,4,1,0,0.012255,0.011970,,,0.001561,0.018826,,-0.011875,0.017376,-0.050884,0.050884,-1.949116,-0.008453,0.002275,-0.002153,0.043191,0.007726,95.963789,0.000752,-0.000600,-0.000497,-0.003641,-0.000631,0.000008,0.000000,0.000000,-0.001000,,,,,,,0.000752,-0.000600,-0.000497,-0.003641,-0.000631,0.000008,0.000000,0.000000,0.000000,0.000000,0.000000,0.000000,0.000000,0.000000,0.000000,0.000000,0.000000,0.000000,0.000000,0.000000,0.000000,0.000000,0.000000,0.000000,0.000000,0.000000,0.000000,,,,,,
7.397992,1779356352.221258,manual_qgc,0,1,4,1,0,0.002735,0.002598,,,0.001579,0.008170,,-0.013222,0.018145,-0.050225,0.050225,-1.949775,-0.009570,0.002558,-0.001900,0.044269,0.004486,95.964451,-0.000519,-0.000236,-0.000185,-0.003709,-0.000376,-0.000017,0.000000,0.000000,-0.001000,,,,,,,-0.000519,-0.000236,-0.000185,-0.003709,-0.000376,-0.000017,0.000000,0.000000,0.000000,0.000000,0.000000,0.000000,0.000000,0.000000,0.000000,0.000000,0.000000,0.000000,0.000000,0.000000,0.000000,0.000000,0.000000,0.000000,0.000000,0.000000,0.000000,,,,,,
7.448056,1779356352.271322,manual_qgc,0,1,4,1,0,0.012337,0.012083,,,0.001548,0.018681,,-0.013965,0.018500,-0.049749,0.049749,-1.950251,-0.010013,0.002699,-0.001599,0.043981,0.003546,95.964154,0.000196,-0.000454,0.000320,-0.003685,-0.000297,-0.000018,0.000000,0.000000,-0.001000,,,,,,,0.000196,-0.000454,0.000320,-0.003685,-0.000297,-0.000018,0.000000,0.000000,0.000000,0.000000,0.000000,0.000000,0.000000,0.000000,0.000000,0.000000,0.000000,0.000000,0.000000,0.000000,0.000000,0.000000,0.000000,0.000000,0.000000,0.000000,0.000000,,,,,,
7.497986,1779356352.321251,manual_qgc,0,1,4,1,0,0.002734,0.002599,,,0.001597,0.008458,,-0.014933,0.018919,-0.049004,0.049004,-1.950996,-0.010509,0.002971,-0.001043,0.045377,0.001178,95.964042,0.000348,0.001337,-0.000111,-0.003813,-0.000106,0.000005,0.000000,0.000000,-0.001000,,,,,,,0.000348,0.001337,-0.000111,-0.003813,-0.000106,0.000005,0.000000,0.000000,0.000000,0.000000,0.000000,0.000000,0.000000,0.000000,0.000000,0.000000,0.000000,0.000000,0.000000,0.000000,0.000000,0.000000,0.000000,0.000000,0.000000,0.000000,0.000000,,,,,,
7.548188,1779356352.371453,manual_qgc,0,1,4,1,0,0.011021,0.012710,,,0.001697,0.018399,,-0.015710,0.019179,-0.048327,0.048327,-1.951673,-0.011093,0.003077,-0.000638,0.045194,0.000420,95.964685,-0.000962,0.000280,0.000299,-0.003803,-0.000035,-0.000015,0.000000,0.000000,-0.001000,,,,,,,-0.000962,0.000280,0.000299,-0.003803,-0.000035,-0.000015,0.000000,0.000000,0.000000,0.000000,0.000000,0.000000,0.000000,0.000000,0.000000,0.000000,0.000000,0.000000,0.000000,0.000000,0.000000,0.000000,0.000000,0.000000,0.000000,0.000000,0.000000,,,,,,
7.598050,1779356352.421315,manual_qgc,0,1,4,1,0,0.002786,0.002651,,,0.001629,0.008639,,-0.016433,0.019351,-0.047419,0.047419,-1.952581,-0.011377,0.003060,-0.000102,0.044904,-0.001176,95.964214,-0.000952,-0.000603,0.000760,-0.003762,0.000099,-0.000013,0.000000,0.000000,-0.001000,,,,,,,-0.000952,-0.000603,0.000760,-0.003762,0.000099,-0.000013,0.000000,0.000000,0.000000,0.000000,0.000000,0.000000,0.000000,0.000000,0.000000,0.000000,0.000000,0.000000,0.000000,0.000000,0.000000,0.000000,0.000000,0.000000,0.000000,0.000000,0.000000,,,,,,
7.648031,1779356352.471296,manual_qgc,0,1,4,1,0,0.012376,0.012190,,,0.001542,0.018622,,-0.016811,0.019420,-0.046706,0.046706,-1.953294,-0.011515,0.002982,0.000278,0.043895,-0.001128,95.964693,-0.000477,-0.001091,-0.000623,-0.003677,0.000095,0.000025,0.000000,0.000000,-0.001000,,,,,,,-0.000477,-0.001091,-0.000623,-0.003677,0.000095,0.000025,0.000000,0.000000,0.000000,0.000000,0.000000,0.000000,0.000000,0.000000,0.000000,0.000000,0.000000,0.000000,0.000000,0.000000,0.000000,0.000000,0.000000,0.000000,0.000000,0.000000,0.000000,,,,,,
7.697992,1779356352.521257,manual_qgc,0,1,4,1,0,0.002732,0.002595,,,0.001525,0.008451,,-0.017213,0.019494,-0.045525,0.045525,-1.954475,-0.011622,0.002848,0.000872,0.044025,-0.000507,95.964031,0.000749,0.001096,0.000514,-0.003693,0.000021,0.000001,0.000000,0.000000,-0.001000,,,,,,,0.000749,0.001096,0.000514,-0.003693,0.000021,0.000001,0.000000,0.000000,0.000000,0.000000,0.000000,0.000000,0.000000,0.000000,0.000000,0.000000,0.000000,0.000000,0.000000,0.000000,0.000000,0.000000,0.000000,0.000000,0.000000,0.000000,0.000000,,,,,,
7.748077,1779356352.571342,manual_qgc,0,1,4,1,0,0.012431,0.012227,,,0.001533,0.018718,,-0.017418,0.019516,-0.044545,0.044545,-1.955455,-0.011670,0.002643,0.001535,0.043123,0.000286,95.964326,-0.001345,-0.000271,0.000687,-0.003604,-0.000032,-0.000015,0.000000,0.000000,-0.001000,,,,,,,-0.001345,-0.000271,0.000687,-0.003604,-0.000032,-0.000015,0.000000,0.000000,0.000000,0.000000,0.000000,0.000000,0.000000,0.000000,0.000000,0.000000,0.000000,0.000000,0.000000,0.000000,0.000000,0.000000,0.000000,0.000000,0.000000,0.000000,0.000000,,,,,,
7.798042,1779356352.621307,manual_qgc,0,1,4,1,0,0.002569,0.002402,,,0.001535,0.008295,,-0.017663,0.019559,-0.042820,0.042820,-1.957180,-0.011625,0.002365,0.002374,0.042759,0.002204,95.964929,0.000747,0.000265,0.000062,-0.003582,-0.000185,-0.000007,0.000000,0.000000,-0.001000,,,,,,,0.000747,0.000265,0.000062,-0.003582,-0.000185,-0.000007,0.000000,0.000000,0.000000,0.000000,0.000000,0.000000,0.000000,0.000000,0.000000,0.000000,0.000000,0.000000,0.000000,0.000000,0.000000,0.000000,0.000000,0.000000,0.000000,0.000000,0.000000,,,,,,
7.848161,1779356352.671426,manual_qgc,0,1,4,1,0,0.012393,0.012206,,,0.001482,0.018351,,-0.017801,0.019467,-0.041592,0.041592,-1.958408,-0.011577,0.002014,0.003037,0.042586,0.003518,95.965093,0.000654,-0.000503,0.001197,-0.003568,-0.000295,-0.000015,0.000000,0.000000,-0.001000,,,,,,,0.000654,-0.000503,0.001197,-0.003568,-0.000295,-0.000015,0.000000,0.000000,0.000000,0.000000,0.000000,0.000000,0.000000,0.000000,0.000000,0.000000,0.000000,0.000000,0.000000,0.000000,0.000000,0.000000,0.000000,0.000000,0.000000,0.000000,0.000000,,,,,,
7.898062,1779356352.721327,manual_qgc,0,1,4,1,0,0.000719,0.002650,,,0.001320,0.008801,,-0.018012,0.019184,-0.039600,0.039600,-1.960400,-0.011650,0.001299,0.004080,0.043210,0.006638,95.965116,0.000505,0.000204,-0.000482,-0.003613,-0.000538,0.000009,0.000000,0.000000,-0.001000,,,,,,,-0.000203,-0.000312,0.000118,-0.003613,-0.000538,0.000009,0.000000,0.000000,0.000000,0.000000,0.000000,0.000000,0.000000,0.000000,0.000000,0.000000,0.000000,0.000000,0.000000,0.000000,0.000000,0.000000,0.000000,0.000000,0.000000,0.000000,0.000000,,,,,,
